stid,site.name,lat,long,area,type
2939,Woody Cove Section,49.60145515497233,-57.94857467315141,301,Marine
1665,McDougall Pond,45.94555821349081,-60.49540240198756,234,Lacu
996,Hebron Lake,58.132709561739,-63.62250872031814,173,Lacu
846,Glacial Lake,64.86490033788053,-165.69980084963268,111,Lacu
2955,Head Lake,37.7084621176814,-105.73993768502844,70,Lacu
2935,Wonder Lake,63.47611633417648,-150.8760762775188,61,Lacu
11773,Sentinel Butte,31.44252086057691,-108.45162419066872,301,Rock Formation
1598,Lake of the Clouds,48.142629080540836,-91.11251683929207,12.5,Lacu
5803,Hiscock Site,43.084999651797965,-78.08115574299458,69,Palu
2262,Lac Manitou,46.05985612572678,-74.3713967494983,287,Lacu
9862,Bates Marsh,42.27282742040071,-81.86824782897953,47,Palu
2241,Sagehen Marsh,37.50667323060378,-108.5688611303411,283,Palu
975,Harding Lake,64.42232667473162,-146.84481197184056,226,Lacu
1127,Jacob Lake,34.30058897503937,-110.88742890600551,268,Lacu
758,Eagle Lake,53.223326446149954,-58.60888220528825,76,Lacu
10179,Cranesville Pine Swamp,39.54341837009016,-79.4832950609504,255,Palu
1974,Redondo Lake,67.70683215840862,-155.06772525658602,100,Lacu
2271,Seagull Lake,68.24606342663529,-145.18101504085752,146,Lacu
790,Etivlik Lake,68.1245498093383,-156.07022089372603,151,Lacu
1823,Perch Lake,46.033445673581696,-77.37519317990915,31,Lacu
1742,Nicol Lake,61.61250088658498,-103.4714490136192,59,Lacu
324,Camel Lake,30.27487791053863,-84.98923875943306,110,Lacu
1826,Lac Petel,50.56245773428139,-66.29186105112731,169,Lacu
1113,Indian Lake,50.92445158571949,-90.47514917719472,42,Lacu
1658,Baie des Onze Iles,46.740885143281055,-73.10644705994659,164,Lacu
1608,Long Lake (CA:Nunavut),62.63120242360187,-101.25828937139968,301,Palu
1977,Redstone Lake,67.22862063876886,-152.58787833389158,157,Lacu
513,Crowsnest Lake,68.32448579707811,-146.46179921667797,182,Lacu
1396,Kaiyak Lake,68.14320533244256,-161.4387712146683,297,Lacu
1709,Lac Montagnais,47.91626124773213,-71.19546422454778,120,Lacu
808,Fish Lake (CA:Nunavut),73.03463530844618,-85.19557292417407,265,Lacu
1115,Inglesby Lake,44.46257349593272,-77.04868800790355,178,Lacu
11696,Benacadie 4,45.90035016322643,-60.70456326747039,301,Palu
2263,Lac aux Quenouilles,46.16649160707102,-74.37726427127998,237,Lacu
2270,Screaming Yellowlegs Pond,67.56908672211061,-151.40492067771743,243,Lacu
1765,Lake O'Hara,51.35580370080544,-116.33231662826536,274,Lacu
2553,Tioga Pass Pond,37.925283583015045,-119.25300897410138,214,Lacu
1677,Lac Mélèze,65.21072823796844,-126.13216371824058,105,Lacu
484,Coghill Lake,53.913833664127175,-66.77541361397627,43,Lacu
1973,Rebel Lake,67.40041444407686,-149.80152115025675,145,Lacu
13657,Lake SL06,68.5953407149766,-91.87266965756878,92,Lacu
1818,Ped Pond,67.19024414768762,-142.05468794172813,108,Lacu
11774,Coyote Hills,32.01607962305244,-108.49656091538327,301,Rock
2258,San Joaquin Marsh,33.665751473172065,-117.8454388747768,75,Palu
1955,Ranger Lake,67.13583793936631,-153.65926950937703,30,Lacu
2936,Woodcliff Lake,41.01961265745284,-74.04443191306093,36,Lacu
957,Grey Islands,50.76746093304696,-55.530452424201734,192,Lacu
992,Headwaters Lake,67.93459020788578,-155.0364047195804,170,Lacu
2549,Petit Lac Terrien,46.58588089459549,-70.60868644496549,79,Lacu
2529,Swamp Lake,37.9500749686846,-119.82931156150917,37,Lacu
1806,Paynter Marsh,44.1035842566706,-78.32787833389152,106,Palu
1699,Minakokosa Lake,66.92612364673197,-155.02548956898866,112,Lacu
1920,Puyuk Lake,63.50292689006753,-162.21188398638077,296,Lacu
789,Lac à la Fourche,47.60275117277144,-70.60602871123584,85,Lacu
2232,Ruppert Lake,67.07035647036672,-154.24462754065632,121,Lacu
1104,Humber Pond 7,43.64569351980604,-79.48961814949774,253,Lacu
1071,Hidden Lake,63.94768393325346,-144.6648929604822,63,Lacu
943,Graham Lake,45.19030585597529,-77.35713039182849,235,Lacu
505,Cranberry Glades,38.202555136375786,-80.27374975338252,160,Palu
263,Banks Island 74MS15,73.5344001404013,-120.20687839809787,96,Lacu
1358,Tourbière du lac Joncas,47.2578683355657,-71.17261794072328,21,Lacu
331,Carbuncle Pond,41.6984915658508,-71.77382581089535,158,Lacu
232,Barry Lake,44.30765425543311,-77.9223000095445,163,Lacu
945,Grant Lake,64.71225087694296,-100.4585383533155,245,Lacu
2309,Sioux Pond,49.92455062068474,-91.56458849078201,166,Lacu
2795,Upper South Branch Pond,46.0884903401334,-68.89288745995334,36,Lacu
1656,Mashapaug Pond,41.7919724100616,-71.43303590034049,231,Lacu
1796,Parrott's Pond,44.22068134512423,-76.69146729777856,197,Lacu
262,Banks Island 74MS12,72.36749496949004,-119.84165179046656,294,Lacu
339,Cascade Fen,37.48404215552301,-107.80821421138641,280,Palu
656,Decoy Lake,43.24135007597988,-80.3674751110739,238,Lacu
829,Furnival Lake,48.21744380438484,-84.93023767972761,60,Lacu
317,Burden Lake,42.599443342271506,-73.56096268653721,142,Lacu
489,Compass Pond,50.034252494553634,-56.18899240687659,278,Lacu
10103,Fort Bragg (core PAW2),35.17740626336319,-79.08395213670745,228,Palu
2547,Ten Mile Lake,63.07199557598651,-145.70449214685195,82,Lacu
2865,Wild Spear Lake,59.252260270638104,-114.1434400395178,81,Lacu
353,Chase Pond,45.65463867094365,-60.66917209307887,23,Lacu
1712,Moraine Lake,52.264877843558374,-58.04368960323179,208,Lacu
2302,Silver Lake,44.556982368787025,-63.64192235298058,156,Lacu
6507,Ocheda Lake,43.5756447033252,-95.59290146345906,78.5,Lacu
1573,Little Bayou Sara Site 1B,30.919894531634686,-91.44497653748046,301,Fluvial
2513,Starkweather Pond,37.66283867441732,-119.0737985127818,139,Lacu
25,Alexis Lake,52.51939381810244,-57.027731591820356,85,Lacu
823,Hayes Lake,49.586122086974285,-93.74462843815589,50,Lacu
1123,Jack Lake,47.31571307818605,-81.76075352837692,201,Lacu
2215,Rostock Mammoth Site,43.50375834950978,-80.99534147733871,301,Field
213,Arrington Marsh,39.490666739605054,-95.5225670246986,301,Palu
2272,Second Lake,44.844186306070206,-79.97875218143002,247,Lacu
241,Beach Lake,65.22165357441554,-127.04683752861625,246,Lacu
13899,Lac Triangle,48.704581521616554,-65.41356008231747,298,Lacu
2562,Lac à la Tortue,45.55142245647644,-73.31513687349499,193,Lacu
206,Andy Lake,64.64501123527644,-128.08042026774658,45,Lacu
1585,Lily Lake,59.203198932719864,-135.39519408592318,12,Lacu
1944,Radtke Lake,43.397038278592724,-88.09524445730312,2.4,Lacu
10142,LaSalle Lake,47.337538702850175,-95.17084386045454,99.2,Lacu
2521,Sugarloaf Pond,47.61588193107826,-52.67213363373517,51,Lacu
1813,Pickerel Lake,45.50595597962284,-97.2738590034048,271,Lacu
10284,Taquitz Meadow,33.76837311917305,-116.6657102782317,46,Lacu
1841,Pitcher Bog,44.82403258220439,-79.98323244429558,35,Palu
1899,Porphyry Lake,48.908785116109726,-123.8293316617856,10,Lacu
10158,Devlins Park,40.00069151468075,-105.56189479584722,147,Palu
2493,Slow River,63.03053055628806,-100.75408809131501,301,Fluvial
1634,Main-à-Dieu,45.97939363490419,-59.84355127461488,28,Lacu
2815,Baie du Diana,60.78225592055707,-69.82796498551576,248,Lacu
6514,Goose Lake,44.98817893991222,-94.58660755968755,53,Lacu
2806,Van Nostrand Lake,43.997452455241515,-79.38385041158737,204,Lacu
1562,Lake Six,48.39540776031548,-81.31677395587742,205,Lacu
303,Brandreth Bog,43.914886363949456,-74.67912606882109,33,Palu
11584,St. Lawrence Island Section 3,63.67350942955655,-171.58641282332368,301,Palu
1713,Mordsger Lake,51.38168642346049,-94.24586437273948,127,Lacu
486,Columbine Ranch Fen,37.60805646634439,-107.808333,232,Fen
2952,Found Lake,45.54955059961673,-78.63562669301187,131,Lacu
2210,Rose Swamp,44.17783094633366,-79.44373157172359,199,Palu
826,Fresh Pond,41.160208343764815,-71.57873632531813,94,Lacu
1659,Wapizagonke,46.72469454888216,-73.03435887564186,288,Lacu
10287,Allenberg Bog,42.249649541232955,-78.87461544067865,77,Palu
797,Lac Faribault,58.863091276558755,-71.71680139216342,95,Lacu
1629,Lynn Lake,56.8386716799113,-101.04435407243803,211,Lacu
563,West Sand Lake Peat Bog,42.63663779895702,-73.5987640654164,249,Palu
1953,Ra Lake,65.2363199227362,-126.4149913579203,48,Lacu
2261,Sarnia Elk Site Section,42.97800725134907,-82.31723340797055,301,?
10208,Las Flores Arroyo,33.290294701037524,-117.4635779524726,26,Alluvial
2546,Ten Lakes,37.90102213653465,-119.53035011941843,186,Lacu
1118,Keystone Ironbog,38.86285359812208,-107.03562637169179,11,Palu
1103,Humber Pond 5,43.64268323870702,-79.4885739216343,102,Lacu
207,Angal Lake,67.13208426754018,-153.89739503018532,189,Lacu
2560,Tonawa Lake,44.85022242533061,-77.17785215673139,267,Lacu
1725,Muscotah Marsh,39.52862508408725,-95.51584052112635,301,Palu
10106,South Dansville Buried Peat,42.49070642642652,-77.6434362172081,12,Palu
11606,Steel Lake,46.97447622523515,-94.68363905902973,23,Lacu
1481,Kinsman Pond,44.1359327009488,-71.73317613137978,183,Lacu
745,Upper Wallface Pond,44.14801773073373,-74.05619916167112,49,Lacu
1788,Palace Pier Section,43.619956984345976,-79.4774187981581,301,Fluvial
1776,Opabin Lake,51.34065075414816,-116.31202464054476,180,Lacu
1975,Vallée de l'Albion,45.668557579284574,-71.32552289540075,286,Lacu
10132,Ozawindib Lake,47.23023564745738,-95.2719312192457,48,Lacu
2294,Shangri-La Bog,53.26518288414929,-132.4068974144452,44,Palu
2856,Whyac Lake,48.67207132243002,-124.84239044715339,236,Lacu
1816,Peatsah Section,43.32955912518246,-79.8180153742744,301,Fluvial
1667,McLaughlan Lake,45.36223081688292,-76.5557713381614,225,Lacu
2784,Twin Lakes (CA:British Columbia),50.78526075671813,-116.36155576994865,78,Lacu
9761,Twelve Mile Coulee,50.205791287851675,-111.64074595187265,52,Lacu
10220,Twin Lake,49.320733918649864,-119.7263616756551,30,Lacu
10427,Allen Lake,46.224199094271206,-89.1721982321848,31,Lacu
13680,Chihuahuenos Bog,36.04763416594924,-106.51017564207969,203,Palu
6515,Olson Lake,46.51134639278445,-93.65845963367998,5.5,Lacu
1102,Humber Pond 3,43.63978843161127,-79.4817255548225,39,Lacu
231,Barrett Lake,37.595727539754726,-119.00665498112303,114,Lacu
11706,Lismore Section,45.70612478929898,-62.2724622379549,301,Fluvial
10248,Little Green Valley Meadow,34.23379506786876,-117.0520075567984,113,Palu
10374,Caribou Lake (MS-74-15),73.5151392969838,-120.27559643674749,89,Lacu
979,Hawke Hills Kettle,47.3236518944371,-53.13283387257201,6,Lacu
1357,Johnson River Bog,63.71051096748833,-144.6486095735935,171,Lacu
1558,Lake LR3,58.57699474494327,-75.2443725255191,31,Lacu
1976,Redrock Lake,40.08199541149682,-105.54148158314842,2.8,Lacu
1842,Pixie Lake,48.59522101719482,-124.19732492702359,5.9,Lacu
10393,Rock Lake,60.454221962222775,-150.25262110855104,115,Lacu
305,Brophy Ditch,43.22127130601562,-81.7302994764568,13,Ditch
830,Saint-Gabriel,46.27709795069731,-73.47607067972761,239,Lacu
11805,Lost Swamp,42.82737301636922,-72.42012551311677,107,Palu
321,Cahaba Pond,33.50105615887189,-86.5327122360984,0.2,Lacu
1413,Kennys Pond,47.59042707671829,-52.71503699308438,266,Lacu
11804,HF077 Cental Plot,42.82743012392882,-72.42018619035218,19,Lacu
10553,Rife Swamp,43.46765702852092,-79.98568370724125,206,Palu
8,Abalone Rocks Marsh,33.95581984354922,-119.97763324291098,2.7,Palu
11808,HF077 South Plot,42.827662815280114,-72.42028000493971,19,Lacu
10115,Titaluk River Exposure 1,69.7111217931677,-155.21238898035242,301,Palu
10116,Titaluk River Exposure 2,69.71091080639216,-155.212350951596,301,Palu
2291,Saint-Francois de Sales,48.29469862274478,-72.14706759345837,62,Lacu
1957,Rattle Lake,49.34969807420909,-92.69926556964165,167,Lacu
11596,Homer Beach,59.63403817526695,-151.51266057512836,301,Beach
2187,L'Anse aux Meadows Road Cut Bog,51.599885435688925,-55.5292660450011,301,Palu
757,Eagle Lake Bog,44.166938080845675,-71.66728021369725,149,Palu
1898,Pond Mills Pond,42.91603601649315,-81.24979203023832,7,Lacu
11587,Circle Lake,59.800596978929434,-151.15974666337354,104,Lacu
1945,Rivière-aux-Feuilles 1,58.23306580042523,-72.06745738821166,83,Lacu
501,Cottonwood Pass Pond,38.82869987600016,-106.41081705762225,9,Lacu
2296,Mont Shefford,45.3590378978031,-72.58421872568861,1.3,Lacu
2785,Twin Lakes,37.46921274621068,-108.10288407776396,0.2,Lacu
8567,Adeline Lake,46.30278163396062,-91.16611359759428,1.2,Lacu
2533,Szabo Pond,40.39968324537419,-74.48345897025565,24,Lacu
951,Green Point Pond,49.67000615294805,-57.94980034902881,3,Lacu
1574,Little Bayou Sara Site 4J,30.961669214236174,-91.48100195797369,301,Fluvial
1356,Joes Pond,48.23998606981641,-58.23999714784327,1,Lacu
10556,Webbs Lake,44.1670666666667,-78.1025,6.215,NA
11736,Spirea Wetland,43.26191,-80.2592416666666,0.2985,NA
11588,Clam Gulch,60.223929999999974,-151.36293500000002,73,Lacu
11598,Lake Minchumina,63.89085499999998,-152.238915,138,Lacu
10414,Weeks Bay,30.41040999999997,-87.83388999999998,133,Marine
1355,Joe Lake,66.76666699999998,-157.21666699999997,103,Lacu
11572,Snipe Lake,60.62600999999998,-154.30347499999996,58,Lacu
11609,Little Swift Lake,60.21647499999999,-159.76567000000003,261,Lacu
10249,Makika Crater,20.560074999999983,-156.56882,184,Crater
9717,"Devils Lake, Creel Bay",48.08589999999997,-98.92934999999999,216,Lacu
10359,Laysan Island Lake,25.767999999999994,-171.73279999999997,293,Lacu
2275,Lake Selby,66.86674999999997,-155.68655,227,Lacu
10453,Grandfather Lake,59.79623,-158.53995000000003,54,Lacu
10455,Ongivinuk Lake,59.56781,-159.35797500000004,213,Lacu
11585,Windmill Lake,63.658899999999974,-148.80525,290,Lacu
11752,Runway Ruin,33.53749999999997,-110.885,301,?
11753,Monitor,33.53749999999997,-110.885,301,?
11754,Columbus,33.53749999999997,-110.885,301,?
11756,Multigrade,33.53749999999997,-110.885,301,?
11778,East Ruin,33.53749999999997,-110.885,301,?
11783,Refugia Ruin,33.53749999999997,-110.885,301,?
10363,Lilypad Lake,36.98228999999997,-118.99407,198,Lac/Pal
10186,Balsam Lake,42.02878499999997,-74.60420500000001,74,Lacu
1711,Moon Lake,46.85591999999997,-98.15984,295,Lacu
10439,Larix laricina Site 4,57.71916666666663,-75.81347222222222,301,?
10440,Larix laricina Site 5,57.71916666666663,-75.81347222222222,301,Palu
11702,Hillsboro Site,46.06676999999998,-61.354865,301,?
370,Lac Ciel Blanc,59.51666699999998,-122.166667,276,Lacu
9798,Dog Lake,50.78054499999998,-115.92976999999999,148,Lacu
10192,Spillway Pond,56.23997499999998,-130.068815,64,Lacu
10322,Oregon Jack Creek (#1),50.65549999999998,-121.46950000000001,301,Fluvial
1600,Little Lake,44.668194999999976,-63.93664,18,Lacu
10225,Lantz Site,44.97979699999998,-63.48817,301,Palu
10354,Joggins Section (MS-82-44),44.38969999999998,-64.7,301,Palu
11728,East Milford Gypsum Quarry,45.012659999999975,-63.41798,301,?
10159,Don Brickyard Interglacial Section,43.68599999999998,-79.366,301,Palu
1616,Sainte-Croix de Lotbinière,46.605832999999976,-71.775,301,?
10441,Larix laricina Site 10,57.85412500000002,-72.777555,301,?
2535,Tangle Lakes,63.02944399999998,-146.063333,262,Lacu
11601,Watana Triangle Pond,62.84288499999998,-148.24701,207,Lacu
13897,Corser Bog,60.52995999999998,-145.45452,135,Palu
673,Dinkey Meadow,36.99999999999998,-119.083333,301,Palu
10107,Lost Park,39.29489999999998,-105.53829999999999,196,Palu
1609,Long Lake,36.00555599999998,-108.833333,252,Lacu
1661,Mayberry Well,33.69999999999998,-108.3,301,Palu
2527,Sutherland Pond,41.391388999999975,-74.037778,299,Lacu
1703,Mirror Pool,46.52583299999998,-97.241389,67,Lacu
2938,Woodworth Pond,47.14999999999998,-99.233333,25,Palu
2561,Tonquin Creek,52.73333299999999,-118.36666700000002,301,Fluvial
10320,Bull Canyon (#1),52.08779999999999,-123.3705,301,?
667,Devon Island Glacier,75.34999999999998,-82.49999999999999,72,Ice
11792,Peloncillo Mountains,32.289083333333366,-109.09416666666648,301,?
13455,Kettle Lake,48.60711999999998,-103.62398999999998,272,Lacu
2506,Spring Lake,55.511388999999994,-119.58333299999998,65,Lacu
2526,Surprise Lake,49.31969,-122.562125,0.37,NA
10123,Eagle Lake,51.040645000000005,-118.153765,4,Lacu
10319,Buckbean Bog,49.119049999999994,-119.68304999999998,242,Palu
10340,Crater Lake,49.192249999999994,-120.09585000000001,202,Lacu
10370,Moraine Bog,51.330000000000005,-124.90000000000002,17,Palu
13375,Cooley Lake,49.49136000000001,-117.64519499999999,27,Lacu
6519,Little Dyke Lake,45.385499999999986,-63.55975000000001,123,Lacu
660,Lac Demain,62.050000000000004,-118.69999999999999,219,Lacu
10349,Grassy Lake,39.700855,-120.664685,4.4,NA
8561,West Olaf Lake,46.5986,-96.18675,58.1,Lacu
14147,Paa-ko,35.208499999999994,-106.31199999999998,301,Rock
1222,Spiritwood Lake,47.074695,-98.58660000000002,200,Lacu
1676,Medicine Lake,44.98418999999999,-97.350125,155,Lacu
2858,Wilcox Pass,52.241667,-117.21666700000002,124,Palu
1618,Louise Pond,52.946429999999985,-131.764345,86,Lacu
10216,Rasberry Bog,57.484394999999985,-130.829355,71,Palu
10407,Testalinden Lake,49.11972999999999,-119.67689999999999,179,Lacu
11925,NEL03,49.49640499999998,-116.905,8,Lacu
770,E Lake,50.69095,-99.65835,3.88,NA
814,John Klondike Bog,60.35666699999999,-123.646667,301,Palu
2392,Sleet Lake,69.28333299999998,-133.583333,2,Lacu
2532,Sweet Little Lake,67.65000000000002,-132.016667,244,Lacu
13643,Lake KR02 (unofficial name),71.34399999999998,-113.78145,273,Lacu
10343,Donard Lake,66.66199999999999,-61.787800000000004,80,Lacu
11928,TK-2 Lake,66.34784,-104.945735,5.254,NA
2947,Lac Yelle,48.50388899999999,-79.637778,153,Lacu
10402,Swan Lake,43.95059999999999,-79.41435,212,Lacu
10505,Twiss Marl Pond,43.44083000000002,-79.95551,66,Lacu
10550,Kilbride Swamp,43.46458333333334,-79.9154166666667,301,Palu
10551,Mark Pond,51.839861111111084,-89.61541666666665,300,Lacu
837,Lac Geai,45.99583299999998,-73.992778,125,Lacu
1000,Tourbière de Lanoraie HENRI,45.988888999999986,-73.3,269,Palu
1556,Lake LB1,57.91666699999998,-75.616667,159,Lacu
1636,Tourbière du lac Malbaie,47.59722199999999,-70.976389,181,Palu
1954,Ramsay Lake,45.600000000000016,-76.1,118,Lacu
275,BL-Tombigbee,33.563332999999986,-88.474444,301,?
993,Healy Lake,63.999999999999986,-144.75,109,Lacu
1503,Kollioksak,66.96666699999999,-156.45,101,Lacu
1748,Niliq Lake,67.86666699999999,-160.433333,150,Lacu
2940,Point Woronzof Peat Section,61.12000000000001,-149.48,301,Palu
9976,Deuce Lake,64.86411999999999,-147.94008,98,Lacu
10019,Meade River bluff,70.47500500000001,-157.34207,215,Palu
10102,Xindi Lake,67.11123499999998,-152.491385,260,Lacu
10212,Jan Lake,63.56466000000002,-143.91772,210,Lacu
10214,Paradox Lake,60.62287999999998,-150.75903,209,Lacu
10346,Onion Portage,67.08224999999999,-158.14735,264,Palu
10385,Nutella Lake,63.052000000000014,-147.39172,90,Lacu
10386,Swampbuggy Lake,63.054549999999985,-147.42066,259,Lacu
10537,Red Green Lake,68.65420999999999,-149.68123500000002,45,Lacu
10538,Tukuto Lake,68.4988,-157.0301,68,Lacu
10539,Upper Capsule Lake,68.63144444444443,-149.416925,117,Lacu
11574,Oil Lake,70.29222222222224,-151.1668055555555,162,Lacu
11579,Sithylemenkat Lake,66.12399,-151.391555,185,Lacu
11599,Mosquito Pond,63.98644499999999,-145.54014999999998,221,Lacu
11600,Otto Lake,63.842249999999986,-149.035575,136,Lacu
11604,Zagoskin Lake,63.448469999999986,-162.10838,292,Lacu
13000,Aghnaghak,63.656005000000015,-171.553815,301,Palu
14150,Tumacacori,31.566499999999984,-111.048,301,?
10282,Skunk Cabbage Meadow,33.77399999999999,-116.666,233,Palu
8585,Horseshoe Lake,38.6867,-90.10375,1426.6,Lacu
2574,Tunica Bayou Site 22,30.962777999999986,-91.519444,301,Palu
29,Lake Allie,44.8036,-94.5579,203.8,Lacu
1701,Lake Minnie,47.244755,-95.007715,30.1,Lacu
2933,Wolsfeld Lake,45.005015,-93.57276,14.8,Lacu
10415,White Lake,40.99966999999998,-74.91347,217,Lacu
249,Belmont Bog,42.249999999999986,-77.916667,103,Palu
803,Fernbank Interglacial,42.54999999999998,-76.62,301,?
1775,"Lake Ontario, Mississauga Basin",43.55666699999998,-78.15,97,Lacu
2863,Winter Gulf Site,42.56111099999998,-78.933889,301,Palu
10155,Byron-Bergen Swamp (Site 2),43.098159999999986,-78.002715,277,Palu
10189,Maple Lake,41.935419999999986,-74.75772,291,Lacu
10280,Devil's Bathtub,43.024689999999985,-77.57376,55,Lacu
10424,Ballston Lake,42.94974999999999,-73.85325,116,Lacu
10518,Pawelski Farm,41.33394999999999,-74.43065,301,Ditch
10080,Wendel site,46.43311499999999,-98.28941,15,Palu
10285,Tipi Ring Site (32OL270),47.22099999999999,-101.34899999999999,301,?
2839,White Pond,34.16758999999998,-80.77616,190,Lacu
10231,Ocean Drilling Program Site 1059 MIS 5 (Core 5),31.734999999999985,-75.53,301,Marine
2575,Tunica Bayou Site 23,30.96194400000001,-91.519444,301,Palu
488,Comb Lake,49.690000000000005,-57.709999999999994,5,Lacu
1790,Paradise Lake,53.050000000000004,-57.74999999999999,175,Lacu
1606,Lone Fox Lake,56.716666999999994,-119.716667,222,Lacu
10145,Cassiope Pond,50.16662499999999,-127.752025,22,Lacu
10174,Mahoney Lake,49.29010499999999,-119.58234,119,Lacu
10217,Richter Marsh,49.03399999999999,-119.64850000000001,301,Palu
10421,Woods Lake,51.00436500000001,-127.269325,161,Lacu
13376,Gerry Lake,53.64544999999999,-121.50548,223,Lacu
10497,Silcox Core 52,57.20541666666664,-94.185,301,Palu
10488,Island Lake,47.83025499999999,-66.18226999999999,257,Lacu
270,Bishops Falls,48.93611099999999,-55.505556,174,Lacu
2295,Shaws Bog,45.01666699999999,-64.183333,251,Palu
10485,Brier Island Bog MS-85-22,44.258194444444456,-66.36777777777775,301,Palu
294,Bondi Section,42.088055999999995,-82.6375,301,Gravel Pit
825,Frenchmens Bay,43.81999999999999,-79.1,93,Lacu
1749,Nina Lake,46.599999999999994,-81.5,289,Lacu
1795,Parkhill Creek,43.18000000000001,-81.75,301,Fluvial
763,East Baltic Bog,46.408333000000006,-62.15,284,Lacu
1903,Portage Bog,46.673610999999994,-64.075,256,Palu
330,Tourbière Caribou,47.639722000000006,-71.235833,168,Lacu
668,Diana Cordeau,60.93888900000001,-69.971944,301,?
670,Diana 500,60.97888900000001,-69.991944,301,?
1551,Lake EC2,56.023332999999994,-74.945,137,Lacu
1947,Tourbière de la Rivière-aux-Feuilles,58.23277800000001,-72.066944,301,Palu
2253,Lac à Sam,46.65416700000001,-72.978889,218,Lacu
11719,Ile d'Entree Site,47.27137999999999,-61.71192,301,?
969,Hafichuk Site,50.320555999999996,-105.883889,141,Lacu
1723,Munday Creek,60.03333299999999,-141.966667,301,?
10288,Arrow Lake,60.75205499999999,-150.516965,126,Lacu
11589,Eightmile Lake,63.888645000000004,-149.2518,152,Lacu
11595,Kalifonsky Beach,60.48344500000001,-151.262085,301,Palu
11597,Longmere Lake,60.50089499999999,-150.90992,132,Lacu
11603,Wiener Lake,61.81077999999999,-148.16984,176,Lacu
12999,Naskak,63.64101166666665,-171.45400999999998,301,Palu
13454,Lake Hill,57.17824000000001,-170.24827,38,Lacu
10369,Mono Lake,38.00794999999999,-119.0255,165,Lacu
11617,Cumbres Bog,37.02174499999999,-106.45052,250,Palu
11560,Lake Cleveland,42.32129,-113.64955,9.7,Lacu
10091,Elk Lake,47.18919,-95.21787,118.1,Lacu
10121,St. Clair Lake,46.80338,-95.88068,57.5,Lacu
1607,Lonesome Lake,44.13999999999999,-71.701111,41,Lacu
819,Forge Pond,40.85583299999999,-74.399167,282,Lacu
2508,Spruce Pond,41.23687,-74.1833,3.5332,NA
2805,Valhalla Hollow,44.30861099999999,-74.370833,14,Lacu
10188,Heart's Content Bog,42.240500000000004,-73.975,88,Palu
10348,Goose Bay Marsh,44.35113499999999,-75.87042,128,Palu
10515,Binnewater Pond,41.409349999999996,-74.551335,279,Lacu
11607,Piermont Marsh,41.027635,-73.908375,91,Palu
665,"Devils Lake, Main Bay",48.031535,-98.95059499999999,99,Lacu
1990,Rice Lake,48.00942,-101.53972,143,Lacu
2304,Silver Lake,41.25182,-74.98612,56,Lacu
10160,Emrick Lake,43.800155,-89.59428,13.1,Lacu
499,Cottonwood Slough,52.866667,-118.1,24,Palu
512,Crowfoot Lake,51.65,-116.416667,17,Lacu
759,Eaglenest Lake,57.766667,-112.1,807,Lacu
1135,January Cave [EbPp-Vp],50.1883333333333,-114.518333333333,301,Cave
1638,Maligne Lake,52.733333,-117.616667,5096.9,NA
2556,Toboggan Lake,50.815305,-114.59946,0.5,Lacu
10274,Chalmer's Bog (PL-78-37),50.645250000000004,-114.5435,5,Palu
14049,Sunwapta Pass Bog 2,52.214259999999996,-117.16168,4,Palu
14055,Sunwapta Pass Bog 6,52.21728,-117.19451000000001,26,Palu
14056,Sunwapta Pass Bog 1,52.214259999999996,-117.181465,2,Palu
296,Boone Lake,55.575,-119.433333,167,Lacu
788,East Sooke Fen,48.351944,-123.681667,0.1,NA
805,Fiddler's Pond,56.25,-121.42,5.46,NA
1838,Pinecrest Lake,49.49313,-121.432065,130,Lacu
2496,Snowshoe Lake,57.45,-120.666667,8,NA
2825,Walker Lake,48.529167,-124.002222,0.38,NA
10153,Pyrola Lake,50.183195,-127.69799499999999,1,Lacu
10171,Berendon Fen,56.24278,-130.055465,134,Palu
10183,Skinny Lake,57.59498,-130.095975,154,Lacu
10321,Bull Canyon (#2),52.0878,-123.37049999999999,301,?
10323,Oregon Jack Creek,50.6555,-121.46950000000001,301,Fluvial
13682,Drizzle Bog,53.935385,-132.10562,2.5,Palu
14031,Hippa Lake,53.53188,-132.97624,32,Lacu
810,Beaverhouse Lake,54.742222,-101.681667,7.2,Lacu
1662,Mayflower Lake,45.302778000000004,-66.070833,6.788,NA
2959,Basswood Road Lake/Splan Pond,45.255556,-67.330556,4,Lacu
24,Alexander Lake,53.333333,-60.583333,38,Lacu
27,Aliuk Pond,54.583333,-57.366667,9.1,Lacu
297,Border Beacon,55.333333,-63.2,130,NA
334,Caribou Hill,55.666667,-63.25,65,NA
1566,L'Anse aux Meadows Site,51.573333,-55.55,2.24,NA
1599,Lake Hope Simpson,52.45,-56.433333,65,NA
1763,Northwest River Pond,53.516667,-60.166667,0.8,Lacu
2190,Robinson's Pond,48.26,-58.8,12.29,NA
2257,Sandy Cove Pond,54.4,-57.716667,109,Lacu
1534,Lac à Magie,44.263889,-66.079167,0.6612,NA
10378,Blomidon Section MS-89-16,45.2235,-64.3751,301,Ditch
248,Bell's Lake,65.016667,-127.483333,1.2,NA
1408,Keele Lake,64.166667,-127.616667,9,NA
1648,M Lake,68.266667,-133.466667,69.288,NA
1937,Queens Lake,64.116667,-110.566667,144,Lacu
2569,Tuktoyaktuk 5,69.05,-133.45,1.4505,NA
495,Coppermine Saddleback,67.833333,-115.316667,16,Lacu
1109,Iglutalik Lake,66.135,-66.083333,122,Lacu
9999,Dye Lower Water Lake (Dyer Lake),66.62245999999999,-61.649249999999995,40,Lacu
13572,Lake JR01,69.9,-95.07,24,Lacu
219,Axe Lake,45.38,-79.51,508.17,NA
235,Lac Bastien,46.4,-78.916667,19.23,NA
507,Crawford Lake,43.5,-79.83,2.2,Lacu
524,Cummins Pond,48.4075,-89.346667,129,Lacu
1072,High Lake,44.516667,-76.6,2.5,Lacu
1416,Marais de Keswick,44.195833,-79.512778,150,Palu
1594,Little Round Lake,44.8,-76.683056,14.87,NA
1762,Nutt Lake,45.216667,-79.45,15.8,Lacu
2793,Upper Mallot Lake,47.308333,-84.258333,73.49,NA
2943,Wylde Bog,43.9,-80.4,1425,NA
10108,Crawford Bog,43.4665277777778,-79.9491666666667,0.6,Palu
10286,Albany River Bog,51.435,-83.6175,4800,Palu
10300,Belec Lake Bog,51.6175,-82.293,893,Palu
10303,Oldman Bog,51.0289,-84.488,6100,Palu
13980,Tawny Pond,44.8163888888889,-77.18251,187,Lacu
1684,Mermaid Bog,46.25,-63.025,254,Palu
208,Lac à l'Ange,47.481667,-70.684722,5.8,Lacu
217,Lac des Atocas,45.543056,-73.311111,0.6,Lacu
304,Brisay 2,54.355833,-70.357778,2,Lacu
319,Lac à la Busque,46.279167,-70.595833,23,Lacu
322,Saint-Calixte,45.961111,-73.868056,2.39,NA
332,Lac Caribou,48.197778,-64.94,2.6,Lacu
338,Lac Castor,46.613889,-72.998611,0.8,Lacu
361,Chism 1,54.799444,-76.145556,1.8,Lacu
362,Chism 2,53.090833,-76.339167,4.7,Lacu
496,Lac Côté,48.966944,-65.95,31,Lacu
498,Tourbière de Lanoraie COTEAU JAUNE,45.960833,-73.341944,340,Palu
533,Daumont,54.883333,-69.4,2,Lacu
658,Delorme 1,54.418889,-69.918889,0.6,Lacu
669,Diana 375,60.9875,-69.958333,195,Lacu
702,Dosquet,46.45,-71.5,301,Palu
798,Tourbière de Farnham,45.282778,-72.982778,410,NA
1362,Tourbière de Lanoraie JOSEPH,45.991944,-73.302778,269,Palu
1531,Lac Colin,46.716667,-70.3,20.583,NA
1533,Lac Louis,47.2875,-79.116667,17.22,NA
1549,Lake CH2,49.683333,-74.583333,12,NA
1550,Lake EC1,56.283333,-75.1,189,Lacu
1554,Lake GB2,56.1,-75.283333,222,Lacu
1559,Lake LT1,58.141667,-75.15,103,Lacu
1569,Tourbière de Lanoraie STJEAN,46,-73.216944,269,Palu
1579,Lac à Léonard,49.207778,-65.812778,0.8349,NA
1647,Lac Marcotte,47.077778,-71.422778,3.8,NA
1657,Dauphinais,46.8,-72.99,0.5,Lacu
1660,Sud du Lac du Noyer,46.787778,-72.837778,0.8484,NA
1733,Nedlouc,57.65,-71.65,230,Lacu
1782,Lac Ouellet,47.532778,-68.943889,6.237,NA
1840,Pink Lake,45.469444,-75.808333,23,NA
1873,Tourbière de Weedon,45.691944,-71.428889,301,?
1877,Saint-Raymond,46.891944,-71.807778,301,Palu
1912,Princeville,46.145833,-71.935833,13.32,NA
2191,Lac des Roches Moutonnées,56.766667,-64.816667,84,Lacu
2209,Lac Romer,45.963889,-73.330833,25,Lacu
2240,Lac au Sable,51.4,-66.216667,266.9,NA
2515,Lac Saint-Jean,48.5,-72,100300,Lacu
2577,Lac Turcotte,49.157778,-65.762778,25.192,NA
2854,Whitney's Gulch,51.516667,-57.3,263,Lacu
13910,Petit lac Bouchard,48.93859500000001,-64.59709000000001,2.8,NA
527,Cycloid Lake,55.266667,-105.266667,20,NA
10143,Gaff Lake,49.46834,-109.67135999999999,2,Lacu
11747,Lake A,55.33119,-105.05531500000001,20,Lacu
970,Hail Lake,60.033333,-129.016667,1,Lacu
972,Hanging Lake,68.383333,-138.383333,57,Lacu
1074,Honeymoon Pond,64.633333,-138.4,0.5,Lacu
1571,Lateral Pond,65.942222,-135.514167,3.5,Lacu
10176,Two Horsemen Pond,60.850205,-135.76908500000002,0.5,Lacu
10209,Long Last Lake,61.564,-137.2285,1,Lacu
10307,Lower Bluefish Basin,67.37236200000001,-140.365444,301,Fluvial
10308,Bluefish Basin,67.37236200000001,-140.365444,301,Fluvial
13477,Dragonfly Lake,60.812585,-135.34124500000001,6,Lacu
13482,Salmo Lake,60.445535,-133.561605,2.5,Lacu
2245,Sakana Lake,67.433333,-147.85,301,Lacu
2551,Tiinkdhul Lake,66.583333,-143.15,5238,NA
2857,Wien Lake,64.333333,-151.266667,5945.25,NA
10083,Code Lake,67.15791999999999,-151.85999500000003,224,Lacu
10094,Last Chance Lake,67.12406,-150.745125,301,Lacu
10100,Ruppert Lake,67.07084,-154.24498499999999,121,Lacu
10101,Wild Tussock Lake,67.12648,-151.38361500000002,285,Lacu
10298,Portage Lake,60.716494999999995,-150.53300000000002,140,Lacu
10345,Dune Lake,64.42099999999999,-149.897625,188,Lacu
10450,Farewell Lake,62.559145,-153.64882,56,Lacu
11571,Idavain Lake,58.77229444444445,-155.94509499999998,194,Lacu
11573,Imnavait Creek,68.66619,-149.358787222222,87,Lacu
11575,Sands of Time Lake,66.029335,-147.55331,220,Lacu
11580,St. Lawrence Section 2,63.6672222222222,-171.5479166666665,301,Palu
11583,North Killeak Lake,66.36669,-164.05399999999997,241,Lacu
11586,Blair Lakes,64.36008000000001,-147.368165,57,Lacu
11590,Grizzly Lake,62.71064,-144.197185,281,Lacu
11643,McCall Glacier,69.2950361111111,-143.790030555556,84,Glac
11854,Mitkof Island,56.81157,-132.93624,51,Palu
13690,Screaming Lynx Lake,66.068205,-145.405555,3.1,Lacu
504,Crane Lake,36.716667,-112.216667,34,Lacu
11757,Tinhorn Wash,33.5375,-110.885,301,?
10204,Flycatcher Basin,41.015,-121.573,1.2,NA
10243,Hual Cu Cuish Meadow,32.967,-116.583,301,Palu
10410,Tulare Lake,36.052,-119.78,22e4,Lacu
10465,Secret Valley Marsh,40.572,-120.26505,125.9,NA
10478,CA-HUM-558 (Pilot Ridge),40.661699999999996,-123.6691,301,Palu
10481,Taylor Marsh,38.9375,-120.05969999999999,301,Palu
10509,Awl Site midden,35.5166666666667,-116.633333333333,301,?
10510,Nelson Basin midden,35.35,-116.733333333333,301,?
10512,No Name East midden,35.4333333333333,-116.566666666667,301,?
10513,No Name West midden,35.4333333333333,-116.566666666667,301,?
10520,China Camp,38.0075,-122.49333333333351,191,Palu
2503,Splains Gulch,38.832778,-107.068889,30.24,NA
2957,Como Lake,37.55,-105.5,2.9588,NA
558,Mohawk Pond,41.81115,-73.292685,6.945223,Lacu
2194,Rogers Lake,41.3525,-72.29915,113.05959800000001,Lacu
9708,Linsley Pond,41.317115,-72.784335,9.3,Lacu
9947,Burnt Knob Lake,45.706945000000005,-114.9829,3.5,Lacu
9985,Hoodoo Lake,46.320235,-114.65153,3.5,Lacu
10279,McCall Fen,44.9253,-116.0483,17.6132,NA
10299,Bear Lake,41.98435,-111.33339,28331.45035,Lacu
10500,Grays Lake,43.06619,-111.43795,8812.981682,NA
13627,Plan B Pond,42.41874,-111.77765,2.5,Lacu
13695,Star Meadows,46.51655,-114.683705,3.2,NA
364,Chatsworth Bog,40.675865,-88.324435,3.7,Palu
2283,Seminary School Basin,38.8975,-89.178611,0.7,NA
2822,Volo Bog,42.35154,-88.18475,0.1,Palu
10283,Southern Lake Michigan,41.8505,-87.345,5784291.830007,Lacu
10413,Crystal Lake,42.234015,-88.357005,93.10000000000001,Lacu
10543,McDonough Lake,38.70616,-90.01835,24.6,Lacu
479,Clear Lake,41.638535,-86.544595,20.998048,NA
1081,Howes Prairie Marsh,41.65,-87.072222,75,Palu
1902,Portage Marsh,41.576111,-87.2225,6.730029,Palu
1989,Rhule Fen,39.953611,-85.741667,3.992798,Palu
2954,Pretty Lake,41.583056,-85.25,74.5,Lacu
10003,Appleman Lake,41.623285,-85.212085,21,Lacu
10128,Cowles Bog,41.6355,-87.0945,6.370325999999999,Palu
10129,Pinhook Bog,41.614990000000006,-86.84671,38.996263,Palu
10137,Miller Woods Pond 21,41.61189,-87.27349,1.290038,Lacu
10138,Miller Woods Pond 32,41.60682,-87.282385,1.972881,Lacu
10139,Miller Woods Pond 44,41.604275,-87.293135,0.876784,Lacu
10141,Miller Woods Pond 51,41.603004999999996,-87.285365,0.468825,Lacu
13350,Spicer Lake,41.75738,-86.52208,5,Lacu
478,Clear Lake,43.12507,-93.42973,1469.8,Lacu
333,Caribou Bog,44.93672,-68.77344,780,Palu
941,Gould Pond,44.983333,-69.316667,3.2,Lacu
1643,Mansell Pond,45.041667,-68.733333,4,Lacu
1716,Moulton Pond,44.6275,-68.639167,22,NA
9866,Big Reed Pond Hollow,46.35065,-69.05170000000001,0.6,NA
9889,Blackwoods Hollow,44.313195,-68.22364,0.32,NA
9890,Buckley Pond Hollow,46.334815,-69.049415,2e-4,NA
9891,Isle au Haut North Hollow,44.0651,-68.6354,7.5e-4,Hollow
9892,Isle au Haut South Hollow,44.031825,-68.630365,1e-4,NA
9893,Roque Island Hollow,44.573075,-67.53069500000001,0.09,Hollow
9894,Schoodic Peninsula Hollow,44.37328,-68.0726,0.03,NA
254,Berry Pond,42.5,-73.316667,3.9,Lacu
562,Tom Swamp,42.516667,-72.2125,57.199999999999996,Palu
753,Duck Pond,41.9327,-70.0005,5.1,Lacu
942,Gould's Bog,42.533333,-72.183333,0.05,Palu
1759,North Pond,42.65,-73.05,15.08,NA
2554,Titicut Swamp,41.95,-71.033333,70.8,NA
2860,Windsor Pond,42.53693,-72.980005,18.9,Palu
2862,Winneconnet Pond,41.966667,-71.116667,96.44,NA
3529,Aino Pond,42.679722,-71.926667,1.8,Lacu
3530,Dead Frog Pond,42.574444,-72.508611,0.02,Palu
6510,Hemlock Hollow,42.5375,-72.178,0.006,Hollow
10020,Round Pond,41.970780000000005,-70.010335,1.6,Lacu
10021,Deep Pond,41.739125,-69.992095,1,Lacu
10023,Icehouse Pond,41.797995,-69.960575,1.8,Lacu
10025,Eagle Pond,41.6982,-70.13606,4,Lacu
10026,Jemima Pond,41.82961,-69.9847,2.2,Lacu
10028,Sandy Hill Pond,41.689985,-70.36407,2.4,Lacu
10029,Fresh Pond,41.594120000000004,-70.532835,5.3,Lacu
10076,Makepeace Cedar Swamp,41.936189999999996,-70.75736,21,Palu
10172,Black Gum Swamp,42.5375,-72.18289999999999,10,Palu
10362,Lily Pond,42.417875,-72.34693,3,Lacu
10433,Green Pond,42.56705,-72.51079999999999,5,Lacu
10434,Lily Warwick,42.68839,-72.337185,0.8,Lacu
10435,Little Mirror Lake,42.524435,-71.60848,5,Lacu
10437,Otter Pond,42.654849999999996,-72.53318999999999,3.1,Lacu
10438,Silver Lake,42.600775,-72.22854,7.1,Lacu
13629,Quag Pond,42.56725,-71.95695,0.8,Lacu
13630,Little Bolton,42.422200000000004,-71.58734999999999,5,Lacu
13633,Snake Pond,42.55585,-72.01640499999999,5,Lacu
13635,Lake Pleasant,42.5604,-72.513,20,Lacu
205,Andrus Lake,46.7,-85.040278,13.4,Lacu
325,Camp 11 Lake,46.666667,-88.016667,1.5,Lacu
1486,Kitchner Lake,45.666667,-87.455,4,Lacu
1540,Lake Sixteen,45.6,-84.316667,55,Lacu
1541,Lake 27,45.066667,-84.783333,45,Lacu
1613,Lost Lake,46.719435000000004,-87.97207,1,Lacu
1669,McNearny Lake,46.427222,-84.958333,51,Lacu
2239,Ryerse Lake,46.131944,-85.179167,8.200000000000001,NA
2502,Spirit Lake,46.47,-86.958333,6,Lacu
2864,Wintergreen Lake,42.4,-85.383333,14.5,Lacu
2934,Wolverine Lake,46.429167,-85.661111,2.9,NA
2948,Yellow Dog Pond,46.75,-87.95,1.5,Lacu
2956,Canyon Lake,46.833333,-87.921389,3,Lacu
7529,Little Dollar Lake,46.186,-85.3082,9.02,Lacu
8559,Irwin Smith Bog,45.0265,-83.61,65,Palu
8586,Glimmerglass Lake,46.21517,-89.32082,9.966123,Lacu
9738,Tower Lake,46.542635000000004,-86.037795,2.6,Lacu
9993,Nelson Lake,46.2287,-85.380295,10.5,Lacu
10034,Mud Lake,47.129415,-88.3169877777778,72,Lacu
10036,Lily Lake,47.911995000000005,-89.0908,1.5,Lacu
10163,East Soldier Lake,46.34668,-84.857625,3.7,Lacu
10164,Guard Lake,46.12683,-84.77968,7.9,Lacu
10239,Cowden Lake,43.35538,-85.35679999999999,51.7,Lacu
10242,Hicks Lake,44.022755000000004,-85.28332499999999,62.7,Lacu
10251,Morrison Lake,42.861000000000004,-85.2115,131,Lacu
10316,Buck Lake,46.520515,-86.35387,614.1,NA
10428,Kerr Lake,46.24378,-89.2758,3.2,Lacu
10429,Crooked Lake,46.24525,-89.29409,251.9,Lacu
10430,Jay Lake,46.234350000000006,-89.28155000000001,2.8,Lacu
11610,Lorraine Lake,46.144684999999996,-86.48299,4,Lacu
11611,Penegor Lake,46.61506,-88.86036,4.5,Lacu
13528,South Rhody peatland,46.565795,-86.0752,4.5,NA
13582,Minden Bog,43.60373,-82.86388,8300,Palu
30,Almora Lake,46.206111,-95.293611,16.2,Lacu
204,Andree Bog,45.725,-93.25,258.9,Palu
238,Black Bass Lake,46.128056,-93.703889,13.4,Lacu
245,Beckman Lake,45.425,-93.183333,9.5,Lacu
266,Big John Pond,47.559174999999996,-94.970775,1.9,Lacu
269,Billy's Lake,46.270579999999995,-94.55155500000001,2.7,Lacu
290,Bob Lake,46.633611,-92.614722,30.8,Lacu
291,Bog A Pond,47.17548,-95.16745499999999,0.8,Lacu
299,Bossuot Lake,44.296475,-93.73571000000001,40.1,Lacu
307,"Brown's Bay, Lake Minnetonka",44.95769,-93.545105,5573,Lacu
318,Burntside Lake,47.924167,-91.994722,2918.142139,Lacu
327,Campbell Lake,44.70722,-93.497645,21.7,Lacu
371,Cindy Pond,47.172305,-94.938965,1.2,Lacu
502,Cottonwood Lake,45.76101,-96.01988,100.1,Lacu
508,Crazy Pond,47.182465,-95.73495,3.2,Lacu
755,Dunnigan Lake,47.708333,-91.641667,33,Lacu
767,Eggert Lake,44.47012,-93.619035,20.9,Lacu
799,Farquar Lake,44.75815,-93.16449,25.3,Lacu
801,Fawn Lake,46.218889,-94.753333,48.9,Lacu
824,French Lake,44.945765,-94.42074,17.8,Lacu
841,George Lake,44.2329,-93.87066,35,Lacu
959,Grice Pond,47.2036,-95.755515,9.1,Lacu
999,Hemo Pond,47.133,-95.47461,15.2,Lacu
1076,Blocknic Lake [Horse Pond],47.181535,-95.86866,6.9,Lacu
1077,Horseshoe Lake,45.460278,-93.047778,42.6,Lacu
1078,Hostage Lake,46.55,-94.133333,4.6,Lacu
1105,Hustler Lake,48.233333,-92.158333,109,Lacu
1119,Irvin Lake,47.135556,-93.643611,2.6,Lacu
1359,Jones Lake,45.428085,-93.98147499999999,28.4,Lacu
1409,Kegan Lake,44.75836,-93.11674,11.4,Lacu
1514,Kryzewinski Lake,46.353333,-92.870278,4.3,Lacu
1526,Kylen Lake,47.35,-91.8,3.5,Lacu
1544,Lake Ann,45.425,-93.6875,58.5,Lacu
1548,Lake Carlson,44.79985,-93.15975,4.722837,Lacu
1564,Lamb Lake,48.165278,-92.107222,39.800000000000004,NA
1582,Lewis Lake,45.749444,-93.364167,71,Lacu
1590,Little Bass Lake,47.286,-93.600465,63.9,NA
1630,Lake Mabel,44.36044,-93.61535,39.72415,Lacu
1652,Martin Pond,47.173975,-94.94396499999999,0.1,NA
1720,Mud Lake,44.226105000000004,-93.829815,52.2,Lacu
1721,Mud Lake (US:Minnesota:Hubbard),46.866667,-94.75,28.499999999999996,Lacu
1724,Murphy Lake,44.711625,-93.341105,19.1,Lacu
1729,Myrtle Lake,47.982605,-93.3853,67,Lacu
1735,Nels Lake,48.033333,-91.9,71,Lacu
1736,Nelson Pond,46.40707,-92.68658500000001,0.9,Lacu
1764,Lake Ogechie,46.133333,-93.783333,158.9,Lacu
1772,Ondris Pond,46.341585,-94.408,0.8,Lacu
1814,Pogonia Bog Pond,45.03503,-93.6305,0.9122,NA
1815,Third Lake,48.098755,-92.010535,17.299999999999997,Lacu
1820,Pennington Lake,45.780556,-93.273056,51.5,Lacu
1827,Peterson Slough,46.966667,-95.316667,1,Palu
1891,Pleasant Lake,44.605869999999996,-93.563475,111.7,Lacu
1901,Portage Lake,47.081,-94.113,61.3,Lacu
1978,Reichow Pond,47.190745,-95.77364,2.8,Lacu
1979,Reidel Lake,46.211944,-95.284167,4.100000000000001,Lacu
1991,Rice Lake,46.922222,-95.575,105.3,Lacu
2235,Rutz Lake,44.87083,-93.85897499999999,21.9,Lacu
2273,Sedivy Lake,47.208889,-95.833333,12,Lacu
2293,Shagawa Lake,47.916667,-91.866667,943.4194339999999,Lacu
2301,Silver Lake,44.895835,-94.20414,179.29999999999998,Lacu
2497,Solum Lake,46.662222,-96.25,27.900000000000002,Lacu
2501,Spectacle Lake,45.572222,-93.408333,99.1,Lacu
2514,St. Catherines Lake,44.626875,-93.43352,47.599999999999994,Lacu
2518,Stone Lake,45.4,-93.522222,15.299999999999999,Lacu
2524,Sunfish Lake,44.874722,-93.1,18.3,Lacu
2548,Quallen Lake [Terhell Pond],47.19324,-95.786645,11,Lacu
2550,Thompson Pond,47.19482,-96.09332,3.2,Lacu
2557,Toenjes Lake,45.408950000000004,-93.98171500000001,3.5,Lacu
2786,Twin Lakes,45.848889,-93.167778,9.9,Lacu
2792,Upper Graven Lake,46.184444,-95.306944,7.000000000000001,Lacu
2849,Weber Lake,47.471667,-91.66,2.2,NA
2851,Wentzel's Pond,46.95,-94.95,3.51,Lacu
2855,White Lily Lake,46.086111,-93.102778,12,Lacu
2859,Willow River Pond,46.324304999999995,-92.78081,0.6,Lacu
6506,South Heron Lake,43.7195,-95.22800000000001,1080.6,Lacu
6511,Blomford Lake,45.4935,-93.1545,8.1,Lacu
6512,Fawn Lake,45.4072,-93.0532,21.4,Lacu
6513,Frovold Lake,45.377,-95.5625,26.200000000000003,Lacu
7531,Last Lake,45.45,-95.24005,13.600000000000001,NA
7532,Cottonwood Lake,44.6173,-95.68015,148.4,Lacu
7533,Monson Lake,45.324,-95.27935,82.19999999999999,NA
7534,Deans Lake,44.775279999999995,-93.44692,68.7,Lacu
7535,Lake Emily,44.30865,-93.91999999999999,99.3,Lacu
7537,Chub Lake,44.563500000000005,-93.218805,90.935553,Lacu
7538,Lake Rachel,45.80155,-95.55285,170.165472,Lacu
7539,Ziebell Lake,46.05545,-95.26345,9.700000000000001,NA
7540,Mud Lake,45.857600000000005,-95.46090000000001,33.4,NA
7541,Lybeck Lake,45.6745,-95.7125,30.7,NA
7542,Union Lake,45.81725,-95.34235,42.199999999999996,Lacu
7543,Albert Lea Lake,43.652550000000005,-93.28399999999999,1075.5,Lacu
7549,Everhart Lake,43.617599999999996,-93.43875,16.7,NA
8551,Sharkey Lake,44.5924,-93.4132,17.9,Lacu
8552,Kimble Pond,44.21895,-93.84015,4.3,Lacu
8565,Oak Glen Lake,43.92945,-93.0815,76.290614,Lacu
8566,Camp Lake,45.405950000000004,-95.39015,85.7,Lacu
9688,Bass Lake,45.19932,-94.87874500000001,19.7,Lacu
9735,Lake Sallie,46.771860000000004,-95.896225,508.5,Lacu
9762,Johnson Lake,45.44376,-95.272065,25.1,Lacu
9824,Lily Lake,44.19291,-93.63978,44.9,Lacu
9825,Kelly-Dudley Lake,44.354434999999995,-93.36593500000001,50,Lacu
9826,Martha Lake,45.141805,-93.73915,39.900000000000006,Lacu
9867,Minnreg,44.693385,-93.3212,15.4,Lacu
9869,Amber Lake,43.60715,-94.473645,73.5,Lacu
9870,Camp Lake,45.16204,-94.0929,48.3,Lacu
9871,Crystal Lake,44.333484999999996,-93.212125,13.8,Lacu
9872,Fish Lake,44.229535,-93.665425,29.799999999999997,Lacu
9873,Fish Lake,44.65162,-93.460155,68.89999999999999,Lacu
9874,Eagle Lake,44.808755000000005,-93.93439000000001,71.7,Lacu
9875,"Lake Emily, Northeast Basin",44.313795,-93.914375,99.3,Lacu
9876,Fuller Lake,45.421695,-94.075455,12.6,Lacu
9953,Lake Mina,45.89346,-95.47560999999999,164.6,Lacu
9987,Elk Lake,45.8668,-95.80385,81.69999999999999,Lacu
10134,Little Horseshoe Lake,45.590765000000005,-93.06903,19.2,Lacu
10135,Cora Lake,46.165285,-95.32412,30.7,Lacu
10140,Tamarack Lake,44.873850000000004,-93.63463999999999,12,Lacu
10144,Saint Olaf Lake,43.90284,-93.417225,36,Lacu
10146,Williams Lake,46.95391,-94.66923,37.1,Lacu
10156,Long Lake,44.988845,-93.55640500000001,112.3,Lacu
10211,Deep Lake,47.68380500000001,-95.398395,18,Lacu
10219,Shingobee Lake,47.004035,-94.688245,67.9,Lacu
10252,Myrtle Lake,47.2291,-95.28831500000001,4.8,Lacu
10446,Bakken Lake,47.69035,-96.2311,8.3,NA
10447,Chicog Lake,47.669650000000004,-96.18299999999999,5.1,NA
10448,Qually Pond,47.683165,-96.20294,9,NA
11620,Fox Lake,43.6774,-94.698115,366.59999999999997,Lacu
11855,Little Shingobee Lake,46.994015000000005,-94.694575,4.3,Lacu
1908,Powers Fort Swale,36.6,-90.583333,1.4,Palu
2530,Swan Lake,41.72106,-102.499255,151.7,Lacu
953,Green Pond,41.005055,-74.49534,393.18,NA
998,Helmetta Bog,40.383333,-74.433333,240,Palu
2531,Swartswood Lake,41.072335,-74.83698000000001,177,Lacu
13583,Lake Grinnell,41.098185,-74.63963,172,Lacu
655,Dead Man Lake,36.2375,-108.951667,56.77,NA
2800,Utricularia Lake,35.968889,-108.808333,1.805,NA
2853,Whiskey Lake,35.981944,-108.810833,40.92,NA
10191,Stewart Bog,35.832,-105.722,270,Palu
482,Clear Pond,43.748575,-74.016955,11.6,Lacu
728,Heart Lake,44.180556,-73.9675,20.68,NA
1080,Houghton Bog,42.541667,-78.670278,3.43,NA
1914,Protection Bog,42.622222,-78.466667,301,Palu
10157,Byron-Bergen Swamp (Site 1),43.09791,-78.014515,302,Palu
10180,Kernochan Bog,41.619,-74.9125,301,Palu
10182,State Line Swamp,42.328,-73.49549999999999,301,Palu
10187,Gayhead Vly,42.3485,-73.9735,275,Pal?
10190,South Lake,42.19727,-74.045885,258,Lacu
10422,Divers Lake,43.04099,-78.39924500000001,229,Lacu
10516,Hyde Park,41.78575,-73.90115,2.64,NA
10517,Otisville,41.47025,-74.5244,7.87,NA
751,Rockyhock Bay,36.166667,-76.683333,23.9,NA
2284,Seminary Site,46.925,-96.758333,20,Palu
1732,Natural Lake,34.663333,-95.386111,5428.630966,Lacu
775,Ely Lake,41.766667,-75.833333,22.68,Lacu
807,First Pond,41.135278,-75.026667,29.5,Lacu
844,Giles Lake,41.376111,-75.093333,47.539514,Lacu
1530,Lake Lacawac,41.381944,-75.292778,20.7,Lacu
2507,Spring Lake,41.673889,-76.35,44.7,NA
2536,Tannersville Bog,41.033333,-75.266667,300,Palu
10181,Mount Davis Marsh,39.7785,-79.2125,112.261316,NA
1797,Pasacaco Pond,41.516667,-71.45,168.29,NA
480,Clear Pond,33.798895,-78.95336,53,Lacu
10232,Ocean Drilling Program Site 1059 MIS 5 (Core 4),31.735,-75.53,301,Marine
500,Cottonwood Lake,44.835435000000004,-99.90806,223,Lacu
2211,Rosebud,43.229167,-100.848611,5.09,NA
203,Anderson Pond,36.03015,-85.50131999999999,35,NA
272,Black Pond,35.620833,-84.186667,1.28,Lacu
1107,Icehouse Bottom [40MR23],35.588333,-84.191667,6133.647955,NA
1757,Nonconnah Creek [TN-1],35.0833333333333,-89.9166666666667,47470,NA
2578,Tuskegee Pond,35.584722,-84.210556,0.32,NA
827,Frying Pan Lake,38.616667,-111.666667,2.661,Lacu
9814,Alpine Pond,37.63632,-112.82445999999999,0.1,Lacu
9830,Lowder Creek Bog,37.67214,-112.79224500000001,3.5,Palu
10195,Blue Lake Wetlands,40.49996,-114.031395,1850,Palu
13683,Purple Lake,38.074380000000005,-111.57115,6.2,Lacu
309,Browns Pond,38.154722,-79.616389,0.12,Lacu
679,Dismal Swamp (91),36.583333,-76.45,46752.9369,Palu
968,Hack Pond,37.984722,-78.997222,2,Lacu
1936,Quarles Pond,37.995833,-79.072222,2.069963,Lacu
196,Hell's Kitchen Lake,46.186930000000004,-89.702685,3,Lacu
306,Brown Lake,45.783333,-89.483333,37,Lacu
326,Camp 12 Lake,45.986111,-89.375,35,Lacu
531,Dark Lake,45.275,-91.475,5.3,Lacu
663,Denton Lake,45.85,-89.316667,20,Lacu
666,Devils Lake,43.4178,-89.73205,151.5,Lacu
1410,Kellys Hollow,45.3,-90.35,0.4,NA
1411,Kellners Lake,44.238056,-87.848056,11.57,Lacu
1593,Little Pine Lake,45.283333,-91.483333,4.3,Lacu
1679,Lake Mendota,43.1,-89.416667,3961.2000000000003,Lacu
1781,Otto Mielke Lake,45.933333,-89.625,11,Lacu
2231,Ruby Lake,45.283333,-91.458333,6.9,Lacu
2937,Wood Lake,45.333333,-90.083333,25.3,Lacu
8572,Elevenses Lake,46.3815,-91.4935,2,Lacu
8573,Eska Lake,45.19145,-90.608,4.2,Lacu
8574,Fallison Lake,45.9915,-89.62075,20.599999999999998,Lacu
9768,Hell Hole Lake,45.786564999999996,-92.21898,1.9,Lacu
10082,Trout Lake,46.030339999999995,-89.67671,1565.1,Lacu
10229,Benach Lake,45.927499999999995,-92.256,6.1,Lacu
10235,Camp Two Lake,46.50045,-91.4105,9.5,Lacu
10240,Ferry Lake,46.013000000000005,-92.125,6.4,Lacu
10352,Hemlock Lake,46.3073,-91.19829,2.3,Lacu
10412,Warner Lake,46.11935,-92.03985,9.3,Lacu
10431,Lake O' Pines,46.140435,-89.2553,4,Lacu
10506,Lima Bog,42.78895,-88.8432,210,Palu
11563,Capitola Lake,45.519575,-89.55507,1.9,Lacu
11602,Beaver Lake,44.919595,-88.15693999999999,3.6,Lacu
13348,Lone Star Lake,45.932,-92.36500000000001,8.5,Lacu
13349,Lily Lake,45.900999999999996,-92.273,8.3,Lacu
1605,Lofty Lake,54.725278,-112.480833,53.93030503074846,NA
2949,Yesterday Lake,56.766667,-119.483333,57.75152564360583,NA
9753,Chappice Lake,50.165490000000005,-110.363545,200.4879579449757,NA
9754,Eagle Lake,51,-113.323611111111,824.3676476141978,NA
9755,Bellshill Lake,52.60273,-111.556055,294.7116576240498,NA
9756,Gooseberry Lake,52.11802,-110.73929000000001,385.187271084077,NA
9757,Keiver's Lake,51.68784,-113.55489,109.14712060416753,NA
9758,Little Fish Lake,51.377375,-112.233625,883.1346914279809,NA
9759,Lloyd Lake [Red Deer Lake],50.87114,-114.161275,212.5195869075447,NA
9760,Red Deer Lake,52.723194444444445,-113.0616666666665,2178.439570082591,NA
13641,Pine Lake,52.089861111111105,-113.4425,412.22424085974797,NA
1649,Marion Lake,49.308333,-122.547222,13.9067325313856,NA
2268,SC1 Pond,54.416667,-131.906667,814752.9674847841,NA
9943,Two Frog Lake,51.106595,-127.534035,5.29088568687749,NA
10114,Big Lake,51.668615,-121.454395,112.99835576084547,NA
10151,Tiny Lake,51.194379999999995,-127.38188,22.588804285044585,NA
10196,Dunbar Lake [Big Fish Lake],50.78748,-116.388495,19.174763330608247,NA
10218,Pyramid Lake,58.89215,-129.833915,11.317777885722586,NA
10493,Cook Bank,50.85930555555555,-128.3044444444445,1492546.3997456892,NA
10494,Logan Inlet,52.78041666666665,-131.68972222222249,1310071.9086952012,NA
10495,Juan Perez Sound,52.5022213921833,-131.37499652096,1310071.9086952012,NA
11605,Fishblue (Blue) Lake,49.992745,-121.49261999999999,8.467040328401826,NA
11934,Pyatts Lake,49.469660000000005,-115.769585,10.072225601551327,NA
13625,Eleanor Lake,52.11139,-119.30096499999999,6.437588368370259,NA
14032,Misty Lake,50.607074999999995,-127.26146,34.222852275339456,NA
14039,Roe Lake,48.782945,-123.302695,2.0068510886700524,NA
849,Jones Lake [Glenboro site],49.448,-99.28965,50.90667180771167,NA
944,Grand Rapids,53,-98.25,371986.7232180091,NA
1824,Perch Lake,51.651389,-100.898889,4.604249882967043,NA
2290,Sewell Lake,49.84135,-99.5763,145.23417626418126,NA
10017,Lake Louise,49.032650000000004,-97.22993,26.76777070370329,NA
10074,Jones Lake,49.450244999999995,-99.28914499999999,50.90667180771167,NA
10075,Mallard Pond,51.287795,-101.32475,7.887285387171204,NA
10152,West Hawk Lake,49.76341,-95.19172499999999,1449.3226610735671,NA
10484,Bradshaw Lake peat section,57.76347222222225,-95.1888888888889,20.981536971832103,NA
1591,Little Lake,45.143555,-66.713325,2.9737411173624015,NA
1915,Point Escuminac,47.075,-64.8,958527.7361114704,NA
10376,Roulston Lake (MS-78-15),46.89451,-67.4,1.9716829714528656,NA
948,Gravel Ridge,55.033333,-62.633333,4763.974724085019,NA
1064,Snow Lake,56.633333,-63.883333,152.89548110473393,NA
1106,Hynes Brook Salt Marsh,48.618611,-58.965,1020608.7250540428,NA
1576,Leading Tickles,49.471389,-55.473056,777137.3564087473,NA
2267,Lake Site South Burin Peninsula,46.919444,-55.6125,7.322883521921975,NA
2516,Saint John Island Pond,53.95,-58.916667,220105.74260846895,NA
10227,Bass Pond,50.715050000000005,-57.374385000000004,6.660490602699717,NA
845,Upper Gillies Lake,46.066667,-60.391667,9.714344852594976,NA
10334,Collins Pond Site (PL-86-56),45.42715,-61.3427,924760.9848924015,NA
10486,Chance Harbour Lake,45.670215,-62.610974999999996,10.833753744682422,NA
10496,Pye Lake,44.9759327777778,-62.09061,12.523707418295816,NA
11926,Path Lake,43.87196,-64.92879500000001,23.4319275825588,NA
261,Banks Island 74MS11,71.75,-124.266667,1485901.8102861173,NA
1668,McMaster Lake,64.133333,-110.583333,9.746378703339504,NA
1980,Reindeer Lake,69.116667,-132.166667,3278.2294946510656,NA
10371,Moraine Lake,71.86,-124.47,41.74391939073253,NA
11608,South Lake,69.080765,-121.42854,70.41403966439913,NA
782,"Ennadai Lake, 1972 Site",61.244444,-100.951389,44079.519119062046,NA
783,Ennadai Lake,61.166667,-100.916667,44079.519119062046,NA
1560,Lake PWWL,73.591389,-98.538889,30.161276408931393,NA
9990,Upper Soper Lake,62.91475444444445,-69.87914,532767.0304846846,NA
9992,Ogac Lake,62.8454677777778,-67.3415277777778,138.22694672442876,NA
10150,Winton Bay Lake,63.3901388888889,-64.68069444444444,328376.72361071367,NA
10170,Brother-of-Fog Lake,67.193,-63.138,22.61008886404559,NA
10206,Fog Lake,67.18237500000001,-63.24945,7.46878472027999,NA
10355,Lake Jake,63.66675,-65.1513,103.35261819852114,NA
10394,Robinson Lake,63.397585,-64.261165,15.890814596113056,NA
10499,Patricia Bay Lake,70.46194444444444,-68.50277777777775,62.58410148195348,NA
13645,Lake MB01,69.807,-112.077,5.409028093763686,NA
7,Three Pines Bog,47,-80.116667,10748.78268274701,NA
233,Baseball Bog,47.23,-79.78,10.121710709942498,NA
506,Crates Lake,49.183333,-81.266667,11.404747450843768,NA
511,Cristal Lake,52.116667,-90.083333,154.74346107925498,NA
766,Edward Lake,44.37,-80.25,24.144506202380487,NA
785,Lake Erie,41.92,-82.76,247250.90760656988,NA
800,Fawn Lake (CA:Ontario),45.41,-79.39,250.1383664523376,NA
835,"Georgian Bay, Lake Huron (1)",44.74,-80.86,345164.9938935952,NA
836,"Georgian Bay, Lake Huron (2)",45.17,-81.32,1190833.0427387673,NA
956,Grenadier Pond,43.64,-79.47,1.9047611615736488,NA
971,Hams Lake,43.236667,-80.413333,3.8876685973617584,NA
1245,Wilcox Lake,43.95,-79.43,55.160058320610666,NA
1561,Lake QC,46.828333,-80.698333,2.3960492175765675,NA
1646,Maplehurst Lake,43.225,-80.659722,8.190871286101968,NA
1663,McCarston's Lake,45.05,-80.09,1190833.0427387673,NA
1770,Oliver Pond,48.422222,-89.323889,3.732355596073924,NA
1800,Pass Lake,48.56,-88.74,26.097351262838583,NA
1900,Porqui Pond,44.93,-79.78,4.578719237777693,NA
2300,Shouldice Lake,45.15,-81.416667,26.797074849372137,NA
2852,Weslemkoon Lake,45.033333,-77.433333,1858.7677699212718,NA
2944,Wylde Lake,43.91,-80.4,6.717250841960784,NA
10215,Cootes Paradise Marsh,43.2765,-79.9075,218.33817713937364,NA
10456,Mayflower Lake,45.3898611111111,-79.2165277777778,5.794745007709168,NA
10521,Rice Lake,44.199085,-78.14232,10036.870691920829,NA
10544,McGinnis Lake,44.607495,-78.039815,4.557063771115575,NA
10548,Dugas Bay Bog,46.310276992702896,-79.3808362591486,1902.246411187486,NA
10549,Glenora Bay,44.0463888888889,-77.03916666666666,109053.08476155059,NA
10552,Preston Lake,43.9869027777778,-79.37944,26.538870515115168,NA
10554,Round Pond,52.531655,-91.3723611111111,11.990503305714528,NA
10555,Wagner Lake,44.19,-79.130295,40.73881331656699,NA
11557,Lovesick Lake,44.55680555555555,-78.22479722222221,23094.009584208306,NA
11613,Kelly Lake,46.443560000000005,-81.06824499999999,339.1556228740496,NA
13362,Mary Lake,44.735654999999994,-81.00255999999999,14.096397425340314,NA
13975,Stoll Lake,44.973845,-77.28929500000001,46.34190096469635,NA
14051,Lake AT01,53.27892,-84.2054,53.286691247704425,NA
252,Bereziuk,54.047222,-76.120278,3.221614087118031,NA
300,Lac Boucané,47.457778,-69.452778,14.875232285014244,NA
659,Delorme 2,54.423611,-69.929722,349282.8816634468,NA
671,Lac du Diable,48.910833,-66.125,11.96627555658984,NA
754,Lac Dufresne,45.85,-70.35,13.987146758723366,NA
842,Lac à St-Germain,45.945833,-74.370833,1.5145936521435783,NA
946,Lac Gras,52.25,-67.066667,679.6884601313005,NA
958,Lac Griault,54.146944,-76.128889,48728.12485859239,NA
976,Lac Harriman,48.2375,-65.838889,47.28473094145157,NA
1400,Kanaaupscow,54.027778,-76.643889,48728.12485859239,NA
1532,Lac Hamard,54.8,-67.5,15123.443332487202,NA
1547,Lake BN7,55.009167,-73.516667,35.59931585775641,NA
1553,Lake GB1,55.110833,-75.248889,5.026457703318999,NA
1698,Lac Mimi,47.496944,-70.375833,4.728422635593734,NA
1893,Lac Pluvieux,47.843889,-69.352778,11.118672797511046,NA
1946,Rivière-aux-Feuilles 2,58.216944,-71.95,3.9443533450096657,NA
2189,Lac à Robin,48.051944,-65.266944,6.265521276398324,NA
10347,Fire Lake,52.331985,-67.35709,104.49103648253217,NA
10377,Le Bassin site,47.23019,-61.900945,1647102.849699323,NA
13302,Lac Brule,45.719030000000004,-75.4417,8.310506075149346,NA
13304,Lac Noir,45.777015000000006,-75.13590500000001,9.212043629299975,NA
481,Clearwater Lake,50.873611,-107.933333,59.84096264278991,NA
1415,Kenosee Lake,49.816667,-102.3,824.8312635344154,NA
1543,Lake A,53.2375,-105.725,22.476032207641275,NA
1546,Lake B,53.8,-106.079167,18.056205712466365,NA
1799,Pasqua Lake,50.78,-104,694.3592595490139,NA
10351,Harris Lake,49.666560000000004,-109.90446,32.09670329462069,NA
11748,West Naniskak Lake,55.430904999999996,-104.938605,9.242196632681152,NA
11749,Marl Pond,55.047974999999994,-105.385195,49.348773104659045,NA
329,Candelabra Lake,61.683333,-130.65,1958.0199397180688,NA
2522,Sulphur Lake,60.95,-137.957778,144.8072336454527,NA
2787,Tyrrell Lake,66.05,-135.655556,72.17778775824276,NA
13288,Trout Lake,68.829105,-138.74448999999998,86.14985263876892,NA
13479,Haircut Lake,60.516075,-133.209055,7.37778815172372,NA
13480,Marcella Lake,60.073494999999994,-133.80601000000001,2.339197217296623,NA
13644,Upper Fly Lake,61.0195,-138.08800000000002,10.494511083184886,NA
940,Goshen Springs,31.721111,-86.134167,6.4,NA
10357,Lake Shelby,30.260064999999997,-87.66485,231,NA
1710,Montezuma Well,34.6492,-111.75225,0.7000000000000001,NA
1906,Potato Lake,34.462222,-111.345278,4,NA
9997,Fracas Lake,36.63069,-112.23854,0.2,NA
10000,Bear Lake,36.371125,-112.147175,0.2,NA
10449,Stoneman Lake,34.778864999999996,-111.517775,53.7,NA
9795,Browns Island,38.04217,-121.86795000000001,210.1,NA
9796,Roe Island,38.0723,-122.03293500000001,100.4,NA
9945,Siesta Lake,37.8505,-119.659945,1.3,NA
10053,Mumbo Lake,41.190975,-122.5105394444445,2.1,NA
10213,Nichols Meadow,37.423500000000004,-119.57849999999999,2.5,NA
10309,Bluff Lake,41.346515,-122.55987,1.3,NA
10325,Bunker Lake,39.05359,-120.386415,3.2,NA
10361,Lily Lake,41.976925,-120.210015,2.3,NA
10368,McMurray Lake,39.4604,-120.64864,4.7,NA
10464,Clear Lake,39.019645,-122.76535,16018.429252999998,NA
10469,Lower Lake,38.590035,-123.30498,0.2,NA
10473,Little Willow Lake,40.411500000000004,-121.38993500000001,7.000000000000001,NA
10476,Cedar Lake,41.20728,-122.4971,3.1,NA
10480,Preston Lake,38.850205,-123.015195,1.5,NA
10482,Tule Lake,39.489633333333344,-123.03548,0.8999999999999999,NA
10483,Grass Lake,41.64960000000001,-122.16714999999999,342.5,NA
10501,Los Penasquitos Lagoon,32.931121111111096,-117.25287,131.07466000000002,NA
10514,Diamond Valley,33.67965,-116.9944,1643.402348,NA
10519,Benicia State Park,38.07347222222225,-122.1930555555555,80.9,NA
10522,Mountain Lake,37.78826,-122.470765,1.5,NA
11950,Mud Pond,34.787665000000004,-120.586555,3.5000000000000004,NA
13488,Fish Lake,41.26396,-123.68312,9.918992,NA
13575,Ogaromtoc Lake,41.486104999999995,-123.541235,1.5,NA
13658,Patterson Lake,41.382000000000005,-120.2205,8.5,NA
494,Copley Lake,38.872222,-107.0825,2.868528,NA
699,Dome Creek Meadow,40.024167,-107.050833,12.3,NA
1705,Molas Lake,37.745833,-107.683611,9.5,NA
2504,Splains Lake,38.8325,-107.077778,2.7932829999999997,NA
9878,San Luis Lake,37.67773,-105.724665,322.90000000000003,NA
10061,Lake Emma,37.902105,-107.61537,3.5000000000000004,NA
10531,Black Mountain Lake,37.846819999999994,-107.23536,3.1,NA
10532,Sky Pond,40.277895,-105.66917000000001,4.1000000000000005,NA
13486,Hunters Lake,37.611035,-106.843695,3.5000000000000004,NA
13628,Bison Lake,39.765005,-107.34582499999999,19.6,NA
229,Barchampe Lake,30.622222,-83.253889,5.689423,NA
312,Buck Lake,27.234444,-81.332222,4.1000000000000005,NA
961,"Water Conservation Area 3B, Gumbo Limbo Dry Head",25.773889,-80.505556,28812.969820000002,NA
962,"Water Conservation Area 3B, Gumbo Limbo Far Tail",25.774722,-80.505556,28812.969820000002,NA
963,"Water Conservation Area 3B, Gumbo Limbo Marsh",25.778889,-80.511111,28812.969820000002,NA
964,"Water Conservation Area 3B, Gumbo Limbo Near Tail",25.886944,-80.561389,28812.969820000002,NA
965,"Water Conservation Area 3B, Gumbo Limbo Wet Head",25.773611,-80.506389,28812.969820000002,NA
1555,Lake Hall,30.521944,-84.249167,72.361684,NA
1597,Lake Annie,27.2,-81.416667,0.715102,NA
1619,Loxahatchee National Wildlife Refuge Site 1 (EPA Site 7),26.481111,-80.415556,55809.267670999994,NA
1718,Mud Creek Site 1,25.219722,-80.604722,168.21759999999998,NA
1719,Mud Lake (US:Florida),29.3,-81.866667,185.8,NA
1760,"Water Conservation Area 3B, Nuthouse Far Tail",25.885556,-80.556667,28812.969820000002,NA
1761,"Water Conservation Area 3B, Nuthouse Head",25.889167,-80.5125,28812.969820000002,NA
2269,Scott Lake,27.966667,-81.95,101.43364500000001,NA
2540,Taylor Creek Site 2,25.205556,-80.643889,9.2,NA
2542,Taylor Slough Site 15,25.201944,-80.687222,239553.71323300002,NA
2543,Taylor Slough Site 7,25.287222,-80.646389,220.4,NA
2570,Lake Tulane,27.586129999999997,-81.503395,35.6,NA
2846,"Water Conservation Area 2A, Site 2 (Site F1)",26.359722,-80.370556,42049.467301,NA
2847,"Water Conservation Area 2A, Site 3 (Site U3)",26.2875,-80.411389,42049.467301,NA
2848,"Water Conservation Area 3A, Site 4 (CA315 (AAS))",25.974,-80.6688,136555.123891,NA
5192,Little Salt Spring,27.075,-82.23333333333333,0.8,NA
6505,Northeast Shark River Slough,25.74642,-80.58386,239553.71323300002,NA
10197,Ridge and Slough (02-05-20-13),26.102,-80.7375,136555.123891,NA
10200,Ridge and Slough (02-05-20-14),26.1025,-80.73599999999999,136555.123891,NA
10201,Ridge and Slough (02-05-21-2),25.8285,-80.768,136555.123891,NA
10202,Ridge and Slough (02-05-21-4),25.829,-80.7675,136555.123891,NA
10203,Ridge and Slough (02-05-21-5),25.829,-80.7675,136555.123891,NA
10255,Ochlockonee River Estuary,30.0045,-84.4625,74.00732500000001,NA
10304,Big Cypress (core 03-9-16-3),25.704500000000003,-80.873,239553.71323300002,NA
10305,Big Cypress (core 03-9-16-6),25.695,-80.87,239553.71323300002,NA
10436,SRM-1,25.3527777777778,-81.1144444444444,37.7,NA
11616,Fakahatchee Strand Preserve State Park,25.9604,-81.45089999999999,35110.353855,NA
11786,Kealia Pond,20.79429,-156.475355,80.10000000000001,NA
358,Cheyenne Bottoms,38.466667,-98.666667,503.7,NA
1125,Jackson Pond,37.43255,-85.72461999999999,3.8,NA
9991,Prien Lake,30.192210000000003,-93.27942,689.401642,NA
10002,Lake Arthur,30.05034,-92.7095,2436.562376,NA
10326,Catahoula Lake (core CLR3),31.50844,-92.13152,6688.284422,NA
